{"type":"FeatureCollection", "features": [
{"type":"Feature","geometry":{"type":"Point","coordinates":[120.90425383111155,14.81857477328448]},"properties":{"id":15934,"facilityco":"DOH000000000002022","healthfaci":"United Balagtas Doctors Hospital","typeofheal":"Hospital","barangay":"Wawa (pob.)","municipali":"BALAGTAS","province":"BULACAN","region":"REGION III (CENTRAL LUZON)","status":"Fucntional","address":"","style":"Hospital"}},
{"type":"Feature","geometry":{"type":"Point","coordinates":[120.89543432441019,14.818518766898839]},"properties":{"id":15935,"facilityco":"DOH000000000030272","healthfaci":"Panginay Bhealth Center","typeofheal":"Barangay Health Station","barangay":"Panginay","municipali":"BALAGTAS","province":"BULACAN","region":"REGION III (CENTRAL LUZON)","status":"Fucntional","address":"Panginay","style":"Barangay Health Station"}},
{"type":"Feature","geometry":{"type":"Point","coordinates":[120.913685,14.815804]},"properties":{"id":15936,"facilityco":"DOH000000000030274","healthfaci":"San Juan Bhealth Center","typeofheal":"Barangay Health Station","barangay":"San Juan","municipali":"BALAGTAS","province":"BULACAN","region":"REGION III (CENTRAL LUZON)","status":"Fucntional","address":"San Juan","style":"Barangay Health Station"}},
{"type":"Feature","geometry":{"type":"Point","coordinates":[120.91047941555577,14.81958286172353]},"properties":{"id":15937,"facilityco":"DOH000000000030270","healthfaci":"Longos Bhealth Center","typeofheal":"Barangay Health Station","barangay":"Longos","municipali":"BALAGTAS","province":"BULACAN","region":"REGION III (CENTRAL LUZON)","status":"Fucntional","address":"Longos","style":"Barangay Health Station"}},
{"type":"Feature","geometry":{"type":"Point","coordinates":[120.9047684236118,14.835573483388217]},"properties":{"id":15938,"facilityco":"DOH000000000001875","healthfaci":"Gubatan Clinic","typeofheal":"Medical Clinic","barangay":"Borol 2nd","municipali":"BALAGTAS","province":"BULACAN","region":"REGION III (CENTRAL LUZON)","status":"Fucntional","address":"Gubatan Clinic","style":"Medical Clinic"}},
{"type":"Feature","geometry":{"type":"Point","coordinates":[120.904977,14.834316]},"properties":{"id":15939,"facilityco":"DOH000000000007418","healthfaci":"Balagtas (bigaa) Rural Health Unit II","typeofheal":"Rural Health Unit","barangay":"Borol 2nd","municipali":"BALAGTAS","province":"BULACAN","region":"REGION III (CENTRAL LUZON)","status":"Fucntional","address":"","style":"Rural Health Unit"}},
{"type":"Feature","geometry":{"type":"Point","coordinates":[120.90531666486046,14.828889524675807]},"properties":{"id":15940,"facilityco":"DOH000000000000286","healthfaci":"Grace Memorial Hospital Foundation Inc.","typeofheal":"Hospital","barangay":"Borol 2nd","municipali":"BALAGTAS","province":"BULACAN","region":"REGION III (CENTRAL LUZON)","status":"Fucntional","address":"","style":"Hospital"}},
{"type":"Feature","geometry":{"type":"Point","coordinates":[120.9052172841661,14.826883999999987]},"properties":{"id":15941,"facilityco":"DOH000000000002720","healthfaci":"Community Medical Clinic Of Balagtas, Co.","typeofheal":"Hospital","barangay":"Borol 1st","municipali":"BALAGTAS","province":"BULACAN","region":"REGION III (CENTRAL LUZON)","status":"Fucntional","address":"","style":"Hospital"}},
{"type":"Feature","geometry":{"type":"Point","coordinates":[120.90474180694355,14.823758797025416]},"properties":{"id":15942,"facilityco":"DOH000000000030268","healthfaci":"Borol 1st Bhealth Center","typeofheal":"Barangay Health Station","barangay":"Borol 1st","municipali":"BALAGTAS","province":"BULACAN","region":"REGION III (CENTRAL LUZON)","status":"Fucntional","address":"Borol 1st","style":"Barangay Health Station"}},
{"type":"Feature","geometry":{"type":"Point","coordinates":[120.903566539177,14.818555386643112]},"properties":{"id":15943,"facilityco":"DOH000000000007209","healthfaci":"Balagtas (bigaa) Rural Health Unit I","typeofheal":"Rural Health Unit","barangay":"Wawa (pob.)","municipali":"BALAGTAS","province":"BULACAN","region":"REGION III (CENTRAL LUZON)","status":"Fucntional","address":"","style":"Rural Health Unit"}},
{"type":"Feature","geometry":{"type":"Point","coordinates":[120.91728632708353,14.861503704347234]},"properties":{"id":15944,"facilityco":"DOH000000000030271","healthfaci":"Northville 6 Bhealth Center","typeofheal":"Barangay Health Station","barangay":"Northville 6","municipali":"BALAGTAS","province":"BULACAN","region":"REGION III (CENTRAL LUZON)","status":"Fucntional","address":"Northville 6","style":"Barangay Health Station"}},
{"type":"Feature","geometry":{"type":"Point","coordinates":[120.916317,14.853217]},"properties":{"id":15945,"facilityco":"DOH000000000032332","healthfaci":"Sto. Ni0o Midwife Clinic","typeofheal":"Birthing Home/Lying-in Clinic","barangay":"Santol","municipali":"BALAGTAS","province":"BULACAN","region":"REGION III (CENTRAL LUZON)","status":"Fucntional","address":"","style":"Birthing Home"}},
{"type":"Feature","geometry":{"type":"Point","coordinates":[120.911424,14.850455]},"properties":{"id":15946,"facilityco":"DOH000000000030275","healthfaci":"Santol Bhealth Center","typeofheal":"Barangay Health Station","barangay":"Santol","municipali":"BALAGTAS","province":"BULACAN","region":"REGION III (CENTRAL LUZON)","status":"Fucntional","address":"Santol","style":"Barangay Health Station"}},
{"type":"Feature","geometry":{"type":"Point","coordinates":[120.905087,14.850259]},"properties":{"id":15947,"facilityco":"DOH000000000030273","healthfaci":"Pulong Gubat Bhealth Center","typeofheal":"Barangay Health Station","barangay":"Pulong Gubat","municipali":"BALAGTAS","province":"BULACAN","region":"REGION III (CENTRAL LUZON)","status":"Fucntional","address":"Pulong Gubat","style":"Barangay Health Station"}},
{"type":"Feature","geometry":{"type":"Point","coordinates":[120.91961236458235,14.840058342272956]},"properties":{"id":15948,"facilityco":"DOH000000000030269","healthfaci":"Dalig Bhealth Center","typeofheal":"Barangay Health Station","barangay":"Dalig","municipali":"BALAGTAS","province":"BULACAN","region":"REGION III (CENTRAL LUZON)","status":"Fucntional","address":"Dalig","style":"Barangay Health Station"}}
]}